[
 {"title": "6045 Shadygrove Drive", "location": {"lat": 37.314316, "lng": -122.008423}},
 {"title": "10798 Stokes Avenue", "location": {"lat": 37.33107589999999, "lng": -122.05861119999997}},
 {"title": "22293 McClellan Road", "location": {"lat": 37.314686, "lng": -122.06510760000003}},
 {"title": "21491 Columbus Ave", "location": {"lat": 37.308121, "lng": -122.05015400000002}},
 {"title": "10686 Johansen Drive", "location": {"lat": 37.3129266, "lng": -122.0066923}}
]
